[
  {
    "beach_id": 1001,
    "region": "gangreung",
    "region_name": "강릉",
    "region_order": 1,
    "beach": "jeongdongjin",
    "display_name": "정동진",
    "lat": 37.7714,
    "lon": 129.1234
  },
  {
    "beach_id": 1002,
    "region": "gangreung",
    "region_name": "강릉",
    "region_order": 1,
    "beach": "sacheonjin",
    "display_name": "사천진",
    "lat": 37.8241,
    "lon": 128.9092
  },
  {
    "beach_id": 1003,
    "region": "gangreung",
    "region_name": "강릉",
    "region_order": 1,
    "beach": "sageunjin",
    "display_name": "사근진",
    "lat": 37.7973,
    "lon": 128.9184
  },
   {
    "beach_id": 1004,
    "region": "gangreung",
    "region_name": "강릉",
    "region_order": 1,
    "beach": "sacheon",
    "display_name": "사천",
    "lat": 37.8292,
    "lon": 128.9037
  },
  {
    "beach_id": 2001,
    "region": "pohang",
    "region_name": "포항",
    "region_order": 2,
    "beach": "wolpo",
    "display_name": "월포",
    "lat": 36.0014,
    "lon": 129.2523
  },
   {
    "beach_id": 2002,
    "region": "pohang",
    "region_name": "포항",
    "region_order": 2,
    "beach": "sinhangman",
    "display_name": "신항만",
    "lat": 35.9819,
    "lon": 129.4227
  },
  {
    "beach_id": 3001,
    "region": "jeju",
    "region_name": "제주",
    "region_order": 3,
    "beach": "jungmun",
    "display_name": "중문",
    "lat": 33.4996,
    "lon": 126.5312
  },
  {
    "beach_id": 3002,
    "region": "jeju",
    "region_name": "제주",
    "region_order": 3,
    "beach": "ihoteu",
    "display_name": "이호테우",
    "lat": 33.4975,
    "lon": 126.4525
  },
  {
    "beach_id": 3003,
    "region": "jeju",
    "region_name": "제주",
    "region_order": 3,
    "beach": "woljeong",
    "display_name": "월정",
    "lat": 33.5564,
    "lon": 126.7953
  },
  {
    "beach_id": 4001,
    "region": "busan",
    "region_name": "부산",
    "region_order": 4,
    "beach": "songjeong",
    "display_name": "송정",
    "lat": 35.1796,
    "lon": 129.1635
  }
]